[
  {
    "type": "Feature",
    "geometry": {
      "type": "Point",
      "coordinates": [-77.451572, 37.546194]
    },
    "properties":{
      "title": "Frist address",
      "address": {
        "streetAddress": "6 Laurel Street",
        "city": "Richmond",
        "state": "VA",
        "zip": 23220
      },
      "marker-color": "#fff",
      "phone": "804-123-4567",
      "category": "healthy_corner_store",
      "_id": 1
    }
  },
  {
    "type": "Feature",
    "geometry": {
      "type": "Point",
      "coordinates": [-77.47493309999999, 37.5557658]
    },
    "properties":{
      "title": "Virginia Museum of Fine Arts",
      "address": {
        "streetAddress": "200 N Boulevard",
        "city": "Richmond",
        "state": "VA",
        "zip": "23220"
      },
      "phone": "804-123-4567",
      "category": "farmers_market",
      "_id": 2
    }
  },
  {
    "type": "Feature",
    "geometry": {
      "type": "Point",
      "coordinates": [-77.4690076, 37.5702444]
    },
    "properties":{
      "title": "INM United",
      "address": {
        "streetAddress": "1805 Highpoint Ave",
        "city": "Richmond",
        "state": "VA",
        "zip": "23230"
      },
      "phone": "804-123-4567",
      "category": "healthy_corner_store",
      "_id": 3
    }
  },
  {
    "type": "Feature",
    "geometry": {
      "type": "Point",
      "coordinates": [-77.4439914, 37.5465963]
    },
    "properties":{
      "title": "Quirk Hotel",
      "address": {
        "streetAddress": "201 West Broad Street",
        "city": "Richmond",
        "state": "VA",
        "zip": "23220"
      },
      "phone": "804-123-4567",
      "category": "healthy_corner_store",
      "_id": 4
    }
  }
]
