[
  {
    "type": "Feature",
    "geometry": {
      "type": "Point",
      "coordinates": [-77.451572, 37.546194]
    },
    "properties":{
      "title": "Healthy Corner Store",
      "address": {
        "streetAddress": "6 Laurel Street",
        "city": "Richmond",
        "state": "VA",
        "zip": 23220
      },
      "marker-color": "#fff",
      "phone": "804-123-4567",
      "category": "healthy_corner_store",
      "_id": 1
    }
  },
  {
    "type": "Feature",
    "geometry": {
      "type": "Point",
      "coordinates": [-77.47493309999999, 37.5557658]
    },
    "properties":{
      "title": "VMFA Farmer's Market",
      "address": {
        "streetAddress": "200 N Boulevard",
        "city": "Richmond",
        "state": "VA",
        "zip": "23220"
      },
      "phone": "804-123-4567",
      "category": "farmers_market",
      "_id": 2
    }
  },
  {
    "type": "Feature",
    "geometry": {
      "type": "Point",
      "coordinates": [-77.4690076, 37.5702444]
    },
    "properties":{
      "title": "INM United Corner Store",
      "address": {
        "streetAddress": "1805 Highpoint Ave",
        "city": "Richmond",
        "state": "VA",
        "zip": "23230"
      },
      "phone": "804-123-4567",
      "category": "healthy_corner_store",
      "_id": 3
    }
  },
  {
    "type": "Feature",
    "geometry": {
      "type": "Point",
      "coordinates": [-77.4439914, 37.5465963]
    },
    "properties":{
      "title": "Quirk's Corner Store",
      "address": {
        "streetAddress": "201 West Broad Street",
        "city": "Richmond",
        "state": "VA",
        "zip": "23220"
      },
      "phone": "804-123-4567",
      "category": "healthy_corner_store",
      "_id": 4
    }
  },
  {
    "type": "Feature",
    "geometry": {
      "type": "Point",
      "coordinates": [-77.474859, 37.516553]
    },
    "properties":{
      "title": "South of the James Farmer's Market",
      "address": {
        "streetAddress": "4021 Forest Hill Ave",
        "city": "Richmond",
        "state": "VA",
        "zip": "23225"
      },
      "phone": "804-123-4567",
      "category": "farmers_market",
      "_id": 5
    }
  },
  {
    "type": "Feature",
    "geometry": {
      "type": "Point",
      "coordinates": [-77.427504, 37.534246]
    },
    "properties":{
      "title": "Historic 17th Street Farmers Market",
      "address": {
        "streetAddress": "100 N. 17th Street",
        "city": "Richmond",
        "state": "VA",
        "zip": "23219"
      },
      "phone": "804-123-4567",
      "category": "farmers_market",
      "_id": 6
    }
  }
]
